{"features": [{"geometry": {"coordinates": [-58.445876, -34.614442], "type": "Point"}, "properties": {"id": "02", "nombre": "Ciudad Autónoma de Buenos Aires"}, "type": "Feature"}, {"geometry": {"coordinates": [-70.119897, -38.641983], "type": "Point"}, "properties": {"id": "58", "nombre": "Neuquén"}, "type": "Feature"}, {"geometry": {"coordinates": [-66.025231, -33.761104], "type": "Point"}, "properties": {"id": "74", "nombre": "San Luis"}, "type": "Feature"}, {"geometry": {"coordinates": [-60.950687, -30.708823], "type": "Point"}, "properties": {"id": "82", "nombre": "Santa Fe"}, "type": "Feature"}, {"geometry": {"coordinates": [-67.181758, -29.684937], "type": "Point"}, "properties": {"id": "46", "nombre": "La Rioja"}, "type": "Feature"}, {"geometry": {"coordinates": [-66.947897, -27.335954], "type": "Point"}, "properties": {"id": "10", "nombre": "Catamarca"}, "type": "Feature"}, {"geometry": {"coordinates": [-65.364766, -26.948284], "type": "Point"}, "properties": {"id": "90", "nombre": "Tucumán"}, "type": "Feature"}, {"geometry": {"coordinates": [-60.765116, -26.386987], "type": "Point"}, "properties": {"id": "22", "nombre": "Chaco"}, "type": "Feature"}, {"geometry": {"coordinates": [-59.93219, -24.895087], "type": "Point"}, "properties": {"id": "34", "nombre": "Formosa"}, "type": "Feature"}, {"geometry": {"coordinates": [-69.955762, -48.815547], "type": "Point"}, "properties": {"id": "78", "nombre": "Santa Cruz"}, "type": "Feature"}, {"geometry": {"coordinates": [-68.526736, -43.788627], "type": "Point"}, "properties": {"id": "26", "nombre": "Chubut"}, "type": "Feature"}, {"geometry": {"coordinates": [-68.582946, -34.630389], "type": "Point"}, "properties": {"id": "50", "nombre": "Mendoza"}, "type": "Feature"}, {"geometry": {"coordinates": [-59.201263, -32.058928], "type": "Point"}, "properties": {"id": "30", "nombre": "Entre Ríos"}, "type": "Feature"}, {"geometry": {"coordinates": [-68.88816, -30.865661], "type": "Point"}, "properties": {"id": "70", "nombre": "San Juan"}, "type": "Feature"}, {"geometry": {"coordinates": [-65.764424, -23.319975], "type": "Point"}, "properties": {"id": "38", "nombre": "Jujuy"}, "type": "Feature"}, {"geometry": {"coordinates": [-63.252627, -27.783432], "type": "Point"}, "properties": {"id": "86", "nombre": "Santiago del Estero"}, "type": "Feature"}, {"geometry": {"coordinates": [-67.229676, -40.40508], "type": "Point"}, "properties": {"id": "62", "nombre": "Río Negro"}, "type": "Feature"}, {"geometry": {"coordinates": [-57.801082, -28.774204], "type": "Point"}, "properties": {"id": "18", "nombre": "Corrientes"}, "type": "Feature"}, {"geometry": {"coordinates": [-54.651571, -26.875303], "type": "Point"}, "properties": {"id": "54", "nombre": "Misiones"}, "type": "Feature"}, {"geometry": {"coordinates": [-64.814159, -24.299284], "type": "Point"}, "properties": {"id": "66", "nombre": "Salta"}, "type": "Feature"}, {"geometry": {"coordinates": [-63.801973, -32.144799], "type": "Point"}, "properties": {"id": "14", "nombre": "Córdoba"}, "type": "Feature"}, {"geometry": {"coordinates": [-60.558477, -36.677392], "type": "Point"}, "properties": {"id": "06", "nombre": "Buenos Aires"}, "type": "Feature"}, {"geometry": {"coordinates": [-65.447644, -37.135065], "type": "Point"}, "properties": {"id": "42", "nombre": "La Pampa"}, "type": "Feature"}, {"geometry": {"coordinates": [-50.742861, -82.521135], "type": "Point"}, "properties": {"id": "94", "nombre": "Tierra del Fuego, Antártida e Islas del Atlántico Sur"}, "type": "Feature"}], "type": "FeatureCollection"}